timestamp(ms),GLOBAL_POSITION_INT.lat,GLOBAL_POSITION_INT.lon
-124.949951171875,30.3240517,-97.6037897
-24.949951171875,30.3240518,-97.6037895
75.050048828125,30.3240518,-97.6037895
175.050048828125,30.3240518,-97.6037895
275.050048828125,30.3240518,-97.6037895
375.050048828125,30.3240518,-97.6037893
475.050048828125,30.3240518,-97.6037893
575.050048828125,30.3240518,-97.6037893
675.050048828125,30.3240518,-97.6037893
775.050048828125,30.3240518,-97.6037893
875.050048828125,30.3240521,-97.6037889
975.050048828125,30.3240521,-97.6037889
1075.050048828125,30.3240521,-97.6037889
1175.050048828125,30.3240521,-97.6037889
1275.050048828125,30.3240521,-97.6037889
1375.050048828125,30.3240521,-97.6037889
1475.050048828125,30.3240523,-97.6037887
1575.050048828125,30.3240523,-97.6037887
1675.050048828125,30.3240523,-97.6037887
1775.050048828125,30.3240523,-97.6037887
1875.050048828125,30.3240523,-97.6037887
1975.050048828125,30.3240525,-97.6037884
2075.050048828125,30.3240525,-97.6037884
2175.050048828125,30.3240525,-97.6037884
2275.050048828125,30.3240525,-97.6037884
2375.050048828125,30.3240527,-97.6037881
2475.050048828125,30.3240527,-97.6037881
2575.050048828125,30.3240527,-97.6037881
2675.050048828125,30.3240527,-97.6037881
2775.050048828125,30.3240527,-97.6037881
2875.050048828125,30.3240529,-97.6037878
2975.050048828125,30.3240529,-97.6037878
3075.050048828125,30.3240529,-97.6037878
3175.050048828125,30.3240529,-97.6037878
3275.050048828125,30.3240529,-97.6037878
3375.050048828125,30.3240529,-97.6037878
3475.050048828125,30.3240531,-97.6037875
3575.050048828125,30.3240531,-97.6037875
3675.050048828125,30.3240531,-97.6037875
3775.050048828125,30.3240531,-97.6037875
3875.050048828125,30.3240531,-97.6037875
3975.050048828125,30.3240541,-97.6037863
4075.050048828125,30.3240541,-97.6037863
4175.050048828125,30.3240541,-97.6037863
4275.050048828125,30.3240541,-97.6037863
4375.050048828125,30.3240541,-97.6037863
4475.050048828125,30.3240541,-97.6037863
4575.050048828125,30.3240541,-97.6037863
4675.050048828125,30.3240541,-97.6037863
4775.050048828125,30.3240541,-97.6037863
4875.050048828125,30.3240541,-97.6037863
4975.050048828125,30.3240541,-97.6037863
5075.050048828125,30.3240541,-97.6037863
5175.050048828125,30.3240541,-97.6037863
5275.050048828125,30.3240541,-97.6037863
5375.050048828125,30.3240541,-97.6037863
5475.050048828125,30.3240541,-97.6037863
5575.050048828125,30.3240541,-97.6037863
5675.050048828125,30.3240541,-97.6037863
5775.050048828125,30.3240541,-97.6037863
5875.050048828125,30.3240541,-97.6037863
5975.050048828125,30.3240556,-97.6037846
6075.050048828125,30.3240556,-97.6037846
6175.050048828125,30.3240556,-97.6037846
6275.050048828125,30.3240556,-97.6037846
6375.050048828125,30.3240556,-97.6037846
6475.050048828125,30.3240556,-97.6037846
6575.050048828125,30.3240556,-97.6037846
6675.050048828125,30.3240556,-97.6037846
6775.050048828125,30.3240556,-97.6037846
6875.050048828125,30.3240556,-97.6037846
6975.050048828125,30.3240556,-97.6037846
7075.050048828125,30.3240556,-97.6037846
7175.050048828125,30.3240556,-97.6037846
7275.050048828125,30.3240556,-97.6037846
7375.050048828125,30.3240556,-97.6037846
7475.050048828125,30.3240556,-97.6037846
7575.050048828125,30.3240556,-97.6037846
7675.050048828125,30.3240556,-97.6037846
7775.050048828125,30.3240556,-97.6037846
7875.050048828125,30.3240566,-97.6037831
7975.050048828125,30.3240566,-97.6037831
8075.050048828125,30.3240566,-97.6037831
8175.050048828125,30.3240566,-97.6037831
8275.050048828125,30.3240566,-97.6037831
8375.050048828125,30.3240566,-97.6037831
8475.050048828125,30.3240566,-97.6037831
8575.050048828125,30.3240566,-97.6037831
8675.050048828125,30.3240566,-97.6037831
8775.050048828125,30.3240566,-97.6037831
8875.050048828125,30.3240566,-97.6037831
8975.050048828125,30.3240566,-97.6037831
9075.050048828125,30.3240566,-97.6037831
9175.050048828125,30.3240566,-97.6037831
9275.050048828125,30.3240566,-97.6037831
9375.050048828125,30.3240566,-97.6037831
9475.050048828125,30.3240566,-97.6037831
9575.050048828125,30.3240566,-97.6037831
9675.050048828125,30.3240566,-97.6037831
9775.050048828125,30.3240566,-97.6037831
9875.050048828125,30.3240566,-97.6037831
9975.050048828125,30.3240571,-97.6037824
10075.050048828125,30.3240571,-97.6037824
10175.050048828125,30.3240571,-97.6037824
10275.050048828125,30.3240571,-97.6037824
10375.050048828125,30.3240571,-97.6037824
10475.050048828125,30.3240571,-97.6037824
10575.050048828125,30.3240571,-97.6037824
10675.050048828125,30.3240571,-97.6037824
10775.050048828125,30.3240571,-97.6037824
10875.050048828125,30.3240571,-97.6037824
10975.050048828125,30.3240571,-97.6037824
11075.050048828125,30.3240571,-97.6037824
11175.050048828125,30.3240571,-97.6037824
11275.050048828125,30.3240571,-97.6037824
11375.050048828125,30.3240571,-97.6037824
11475.050048828125,30.3240571,-97.6037824
11575.050048828125,30.3240571,-97.6037824
11675.050048828125,30.3240571,-97.6037824
11775.050048828125,30.3240571,-97.6037824
11875.050048828125,30.3240573,-97.6037814
11975.050048828125,30.3240573,-97.6037814
12075.050048828125,30.3240573,-97.6037814
12175.050048828125,30.3240573,-97.6037814
12275.050048828125,30.3240573,-97.6037814
12375.050048828125,30.3240573,-97.6037814
12475.050048828125,30.3240573,-97.6037814
12575.050048828125,30.3240573,-97.6037814
12675.050048828125,30.3240573,-97.6037814
12775.050048828125,30.3240573,-97.6037814
12875.050048828125,30.3240573,-97.6037814
12975.050048828125,30.3240573,-97.6037814
13075.050048828125,30.3240573,-97.6037814
13175.050048828125,30.3240573,-97.6037814
13275.050048828125,30.3240573,-97.6037814
13375.050048828125,30.3240573,-97.6037814
13475.050048828125,30.3240573,-97.6037814
13575.050048828125,30.3240573,-97.6037814
13675.050048828125,30.3240573,-97.6037814
13775.050048828125,30.3240573,-97.6037814
13875.050048828125,30.3240573,-97.6037814
13975.050048828125,30.3240573,-97.6037812
14075.050048828125,30.3240573,-97.6037812
14175.050048828125,30.3240573,-97.6037812
14275.050048828125,30.3240573,-97.6037812
14375.050048828125,30.3240573,-97.6037812
14475.050048828125,30.3240573,-97.6037813
14575.050048828125,30.3240573,-97.6037813
14675.050048828125,30.3240573,-97.6037813
14775.050048828125,30.3240573,-97.6037813
14875.050048828125,30.3240573,-97.6037813
14975.050048828125,30.3240575,-97.6037814
15075.050048828125,30.3240575,-97.6037814
15175.050048828125,30.3240575,-97.6037814
15275.050048828125,30.3240575,-97.6037814
15375.050048828125,30.3240575,-97.6037814
15475.050048828125,30.3240576,-97.6037814
15575.050048828125,30.3240576,-97.6037814
15675.050048828125,30.3240576,-97.6037814
15775.050048828125,30.3240576,-97.6037814
15875.050048828125,30.3240576,-97.6037814
15975.050048828125,30.3240578,-97.6037812
16075.050048828125,30.3240578,-97.6037812
16175.050048828125,30.3240578,-97.6037812
16275.050048828125,30.3240578,-97.6037812
16375.050048828125,30.3240578,-97.6037812
16475.050048828125,30.3240579,-97.6037809
16575.050048828125,30.3240579,-97.6037809
16675.050048828125,30.3240579,-97.6037809
16775.050048828125,30.3240579,-97.6037809
16875.050048828125,30.3240579,-97.6037809
16975.050048828125,30.3240581,-97.6037805
17075.050048828125,30.3240581,-97.6037805
17175.050048828125,30.3240581,-97.6037805
17275.050048828125,30.3240581,-97.6037805
17375.050048828125,30.3240581,-97.6037805
17475.050048828125,30.3240581,-97.6037805
17575.050048828125,30.3240581,-97.6037805
17675.050048828125,30.3240581,-97.6037805
17775.050048828125,30.3240581,-97.6037805
17875.050048828125,30.3240581,-97.6037805
17975.050048828125,30.3240585,-97.6037798
18075.050048828125,30.3240585,-97.6037798
18175.050048828125,30.3240585,-97.6037798
18275.050048828125,30.3240585,-97.6037798
18375.050048828125,30.3240585,-97.6037798
18475.050048828125,30.3240588,-97.6037793
18575.050048828125,30.3240588,-97.6037793
18675.050048828125,30.3240588,-97.6037793
18775.050048828125,30.3240588,-97.6037793
18875.050048828125,30.3240588,-97.6037793
18975.050048828125,30.3240591,-97.6037786
19075.050048828125,30.3240591,-97.6037786
19175.050048828125,30.3240591,-97.6037786
19275.050048828125,30.3240591,-97.6037786
19375.050048828125,30.3240591,-97.6037786
19475.050048828125,30.3240593,-97.603778
19575.050048828125,30.3240593,-97.603778
19675.050048828125,30.3240593,-97.603778
19775.050048828125,30.3240593,-97.603778
19875.050048828125,30.3240593,-97.603778
19975.050048828125,30.3240595,-97.6037773
20075.050048828125,30.3240595,-97.6037773
20175.050048828125,30.3240595,-97.6037773
20275.050048828125,30.3240595,-97.6037773
20375.050048828125,30.3240595,-97.6037773
20475.050048828125,30.3240597,-97.6037765
20575.050048828125,30.3240597,-97.6037765
20675.050048828125,30.3240597,-97.6037765
20775.050048828125,30.3240597,-97.6037765
20875.050048828125,30.3240597,-97.6037765
20975.050048828125,30.3240598,-97.603776
21075.050048828125,30.3240598,-97.603776
21175.050048828125,30.3240598,-97.603776
21275.050048828125,30.3240598,-97.603776
21375.050048828125,30.3240598,-97.603776
21475.050048828125,30.32406,-97.6037756
21575.050048828125,30.32406,-97.6037756
21675.050048828125,30.32406,-97.6037756
21775.050048828125,30.32406,-97.6037756
21875.050048828125,30.32406,-97.6037756
21975.050048828125,30.3240601,-97.6037751
22075.050048828125,30.3240601,-97.6037751
22175.050048828125,30.3240601,-97.6037751
22275.050048828125,30.3240601,-97.6037751
22375.050048828125,30.3240601,-97.6037751
22475.050048828125,30.3240603,-97.6037746
22575.050048828125,30.3240603,-97.6037746
22675.050048828125,30.3240603,-97.6037746
22775.050048828125,30.3240603,-97.6037746
22875.050048828125,30.3240603,-97.6037746
22975.050048828125,30.3240605,-97.6037743
23075.050048828125,30.3240605,-97.6037743
23175.050048828125,30.3240605,-97.6037743
23275.050048828125,30.3240605,-97.6037743
23375.050048828125,30.3240605,-97.6037743
23475.050048828125,30.3240608,-97.6037738
23575.050048828125,30.3240608,-97.6037738
23675.050048828125,30.3240608,-97.6037738
23775.050048828125,30.3240608,-97.6037738
23875.050048828125,30.3240608,-97.6037738
23975.050048828125,30.3240611,-97.6037735
24075.050048828125,30.3240611,-97.6037735
24175.050048828125,30.3240611,-97.6037735
24275.050048828125,30.3240611,-97.6037735
24375.050048828125,30.3240611,-97.6037735
24475.050048828125,30.3240613,-97.6037732
24575.050048828125,30.3240613,-97.6037732
24675.050048828125,30.3240613,-97.6037732
24775.050048828125,30.3240613,-97.6037732
24875.050048828125,30.3240613,-97.6037732
24975.050048828125,30.3240615,-97.6037728
25075.050048828125,30.3240615,-97.6037728
25175.050048828125,30.3240615,-97.6037728
25275.050048828125,30.3240615,-97.6037728
25375.050048828125,30.3240615,-97.6037728
25475.050048828125,30.3240617,-97.6037722
25575.050048828125,30.3240617,-97.6037722
25675.050048828125,30.3240617,-97.6037722
25775.050048828125,30.3240617,-97.6037722
25875.050048828125,30.3240617,-97.6037722
25975.050048828125,30.3240618,-97.6037718
26075.050048828125,30.3240618,-97.6037718
26175.050048828125,30.3240618,-97.6037718
26275.050048828125,30.3240618,-97.6037718
26375.050048828125,30.3240618,-97.6037718
26475.050048828125,30.324062,-97.6037716
26575.050048828125,30.324062,-97.6037716
26675.050048828125,30.324062,-97.6037716
26775.050048828125,30.324062,-97.6037716
26875.050048828125,30.324062,-97.6037716
26975.050048828125,30.3240621,-97.6037713
27075.050048828125,30.3240621,-97.6037713
27175.050048828125,30.3240621,-97.6037713
27275.050048828125,30.3240621,-97.6037713
27375.050048828125,30.3240621,-97.6037713
27475.050048828125,30.3240623,-97.6037711
27575.050048828125,30.3240623,-97.6037711
27675.050048828125,30.3240623,-97.6037711
27775.050048828125,30.3240623,-97.6037711
27875.050048828125,30.3240623,-97.6037711
27975.050048828125,30.3240625,-97.6037707
28075.050048828125,30.3240625,-97.6037707
28175.050048828125,30.3240625,-97.6037707
28275.050048828125,30.3240625,-97.6037707
28375.050048828125,30.3240625,-97.6037707
28475.050048828125,30.3240628,-97.6037704
28575.050048828125,30.3240628,-97.6037704
28675.050048828125,30.3240628,-97.6037704
28775.050048828125,30.3240628,-97.6037704
28875.050048828125,30.3240628,-97.6037704
28975.050048828125,30.324063,-97.60377
29075.050048828125,30.324063,-97.60377
29175.050048828125,30.324063,-97.60377
29275.050048828125,30.324063,-97.60377
29375.050048828125,30.324063,-97.60377
29475.050048828125,30.3240632,-97.6037695
29575.050048828125,30.3240632,-97.6037695
29675.050048828125,30.3240632,-97.6037695
29775.050048828125,30.3240632,-97.6037695
29875.050048828125,30.3240632,-97.6037695
29975.050048828125,30.3240634,-97.603769
30075.050048828125,30.3240634,-97.603769
30175.050048828125,30.3240634,-97.603769
30275.050048828125,30.3240634,-97.603769
30375.050048828125,30.3240634,-97.603769
30475.050048828125,30.3240638,-97.6037684
30575.050048828125,30.3240638,-97.6037684
30675.050048828125,30.3240638,-97.6037684
30775.050048828125,30.3240638,-97.6037684
30875.050048828125,30.3240638,-97.6037684
30975.050048828125,30.324064,-97.6037681
31075.050048828125,30.324064,-97.6037681
31175.050048828125,30.324064,-97.6037681
31275.050048828125,30.324064,-97.6037681
31375.050048828125,30.324064,-97.6037681
31475.050048828125,30.3240641,-97.6037677
31575.050048828125,30.3240641,-97.6037677
31675.050048828125,30.3240641,-97.6037677
31775.050048828125,30.3240641,-97.6037677
31875.050048828125,30.3240641,-97.6037677
31975.050048828125,30.3240642,-97.6037674
32075.050048828125,30.3240642,-97.6037674
32175.050048828125,30.3240642,-97.6037674
32275.050048828125,30.3240642,-97.6037674
32375.050048828125,30.3240642,-97.6037674
32475.050048828125,30.3240643,-97.6037671
32575.050048828125,30.3240643,-97.6037671
32675.050048828125,30.3240643,-97.6037671
32775.050048828125,30.3240643,-97.6037671
32875.050048828125,30.3240643,-97.6037671
32975.050048828125,30.3240643,-97.6037669
33075.050048828125,30.3240643,-97.6037669
33175.050048828125,30.3240643,-97.6037669
33275.050048828125,30.3240643,-97.6037669
33375.050048828125,30.3240643,-97.6037669
33475.050048828125,30.3240644,-97.6037666
33575.050048828125,30.3240644,-97.6037666
33675.050048828125,30.3240644,-97.6037666
33775.050048828125,30.3240644,-97.6037666
33875.050048828125,30.3240644,-97.6037666
33975.050048828125,30.3240644,-97.6037663
34075.050048828125,30.3240644,-97.6037663
34175.050048828125,30.3240644,-97.6037663
34275.050048828125,30.3240644,-97.6037663
34375.050048828125,30.3240644,-97.6037663
34475.050048828125,30.3240645,-97.6037661
34575.050048828125,30.3240645,-97.6037661
34675.050048828125,30.3240645,-97.6037661
34775.050048828125,30.3240645,-97.6037661
34875.050048828125,30.3240645,-97.6037661
34975.050048828125,30.3240647,-97.6037657
35075.050048828125,30.3240647,-97.6037657
35175.050048828125,30.3240647,-97.6037657
35275.050048828125,30.3240647,-97.6037657
35375.050048828125,30.3240647,-97.6037657
35475.050048828125,30.3240648,-97.6037653
35575.050048828125,30.3240648,-97.6037653
35675.050048828125,30.3240648,-97.6037653
35775.050048828125,30.3240648,-97.6037653
35875.050048828125,30.3240648,-97.6037653
35975.050048828125,30.324065,-97.6037651
36075.050048828125,30.324065,-97.6037651
36175.050048828125,30.324065,-97.6037651
36275.050048828125,30.324065,-97.6037651
36375.050048828125,30.324065,-97.6037651
36475.050048828125,30.3240653,-97.6037648
36575.050048828125,30.3240653,-97.6037648
36675.050048828125,30.3240653,-97.6037648
36775.050048828125,30.3240653,-97.6037648
36875.050048828125,30.3240653,-97.6037648
36975.050048828125,30.3240654,-97.6037647
37075.050048828125,30.3240654,-97.6037647
37175.050048828125,30.3240654,-97.6037647
37275.050048828125,30.3240654,-97.6037647
37375.050048828125,30.3240654,-97.6037647
37475.050048828125,30.3240656,-97.6037643
37575.050048828125,30.3240656,-97.6037643
37675.050048828125,30.3240656,-97.6037643
37775.050048828125,30.3240656,-97.6037643
37875.050048828125,30.3240656,-97.6037643
37975.050048828125,30.3240658,-97.6037643
38075.050048828125,30.3240658,-97.6037643
38175.050048828125,30.3240658,-97.6037643
38275.050048828125,30.3240658,-97.6037643
38375.050048828125,30.3240658,-97.6037643
38475.050048828125,30.3240659,-97.6037645
38575.050048828125,30.3240659,-97.6037645
38675.050048828125,30.3240659,-97.6037645
38775.050048828125,30.3240659,-97.6037645
38875.050048828125,30.3240659,-97.6037645
38975.050048828125,30.3240658,-97.6037649
39075.050048828125,30.3240658,-97.6037649
39175.050048828125,30.3240658,-97.6037649
39275.050048828125,30.3240658,-97.6037649
39375.050048828125,30.3240658,-97.6037649
39475.050048828125,30.3240658,-97.6037651
39575.050048828125,30.3240658,-97.6037651
39675.050048828125,30.3240658,-97.6037651
39775.050048828125,30.3240658,-97.6037651
39875.050048828125,30.3240658,-97.6037651
39975.050048828125,30.3240659,-97.6037653
40075.050048828125,30.3240659,-97.6037653
40175.050048828125,30.3240659,-97.6037653
40275.050048828125,30.3240659,-97.6037653
40375.050048828125,30.3240659,-97.6037653
40475.050048828125,30.324066,-97.6037655
40575.050048828125,30.324066,-97.6037655
40675.050048828125,30.324066,-97.6037655
40775.050048828125,30.324066,-97.6037655
40875.050048828125,30.324066,-97.6037655
40975.050048828125,30.3240661,-97.6037654
41075.050048828125,30.3240661,-97.6037654
41175.050048828125,30.3240661,-97.6037654
41275.050048828125,30.3240661,-97.6037654
41375.050048828125,30.3240661,-97.6037654
41475.050048828125,30.3240662,-97.6037652
41575.050048828125,30.3240662,-97.6037652
41675.050048828125,30.3240662,-97.6037652
41775.050048828125,30.3240662,-97.6037652
41875.050048828125,30.3240662,-97.6037652
41975.050048828125,30.3240663,-97.6037651
42075.050048828125,30.3240663,-97.6037651
42175.050048828125,30.3240663,-97.6037651
42275.050048828125,30.3240663,-97.6037651
42375.050048828125,30.3240663,-97.6037651
42475.050048828125,30.3240666,-97.6037648
42575.050048828125,30.3240666,-97.6037648
42675.050048828125,30.3240666,-97.6037648
42775.050048828125,30.3240666,-97.6037648
42875.050048828125,30.3240666,-97.6037648
42975.050048828125,30.3240669,-97.6037645
43075.050048828125,30.3240669,-97.6037645
43175.050048828125,30.3240669,-97.6037645
43275.050048828125,30.3240669,-97.6037645
43375.050048828125,30.3240669,-97.6037645
43475.050048828125,30.3240672,-97.6037641
43575.050048828125,30.3240672,-97.6037641
43675.050048828125,30.3240672,-97.6037641
43775.050048828125,30.3240672,-97.6037641
43875.050048828125,30.3240672,-97.6037641
43975.050048828125,30.3240675,-97.6037638
44075.050048828125,30.3240675,-97.6037638
44175.050048828125,30.3240675,-97.6037638
44275.050048828125,30.3240675,-97.6037638
44375.050048828125,30.3240675,-97.6037638
44475.050048828125,30.3240677,-97.6037635
44575.050048828125,30.3240677,-97.6037635
44675.050048828125,30.3240677,-97.6037635
44775.050048828125,30.3240677,-97.6037635
44875.050048828125,30.3240677,-97.6037635
44975.050048828125,30.324068,-97.6037631
45075.050048828125,30.324068,-97.6037631
45175.050048828125,30.324068,-97.6037631
45275.050048828125,30.324068,-97.6037631
45375.050048828125,30.324068,-97.6037631
45475.050048828125,30.3240683,-97.6037628
45575.050048828125,30.3240683,-97.6037628
45675.050048828125,30.3240683,-97.6037628
45775.050048828125,30.3240683,-97.6037628
45875.050048828125,30.3240683,-97.6037628
45975.050048828125,30.3240685,-97.6037625
46075.050048828125,30.3240685,-97.6037625
46175.050048828125,30.3240685,-97.6037625
46275.050048828125,30.3240685,-97.6037625
46375.050048828125,30.3240685,-97.6037625
46475.050048828125,30.3240687,-97.6037622
46575.050048828125,30.3240687,-97.6037622
46675.050048828125,30.3240687,-97.6037622
46775.050048828125,30.3240687,-97.6037622
46875.050048828125,30.3240687,-97.6037622
46975.050048828125,30.3240689,-97.6037619
47075.050048828125,30.3240689,-97.6037619
47175.050048828125,30.3240689,-97.6037619
47275.050048828125,30.3240689,-97.6037619
47375.050048828125,30.3240689,-97.6037619
47475.050048828125,30.3240691,-97.6037617
47575.050048828125,30.3240691,-97.6037617
47675.050048828125,30.3240691,-97.6037617
47775.050048828125,30.3240691,-97.6037617
47875.050048828125,30.3240691,-97.6037617
47975.050048828125,30.3240691,-97.6037617
48075.050048828125,30.3240691,-97.6037617
48175.050048828125,30.3240691,-97.6037617
48275.050048828125,30.3240691,-97.6037617
48375.050048828125,30.3240691,-97.6037617
48475.050048828125,30.3240692,-97.6037613
48575.050048828125,30.3240692,-97.6037613
48675.050048828125,30.3240692,-97.6037613
48775.050048828125,30.3240692,-97.6037613
48875.050048828125,30.3240692,-97.6037613
48975.050048828125,30.3240692,-97.6037612
49075.050048828125,30.3240692,-97.6037612
49175.050048828125,30.3240692,-97.6037612
49275.050048828125,30.3240692,-97.6037612
49375.050048828125,30.3240692,-97.6037612
49475.050048828125,30.3240692,-97.603761
49575.050048828125,30.3240692,-97.603761
49675.050048828125,30.3240692,-97.603761
49775.050048828125,30.3240692,-97.603761
49875.050048828125,30.3240692,-97.603761
49975.050048828125,30.3240693,-97.6037608
50075.050048828125,30.3240693,-97.6037608
50175.050048828125,30.3240693,-97.6037608
50275.050048828125,30.3240693,-97.6037608
50375.050048828125,30.3240693,-97.6037608
50475.050048828125,30.3240692,-97.6037607
50575.050048828125,30.3240692,-97.6037607
50675.050048828125,30.3240692,-97.6037607
50775.050048828125,30.3240692,-97.6037607
50875.050048828125,30.3240692,-97.6037607
50975.050048828125,30.3240692,-97.6037605
51075.050048828125,30.3240692,-97.6037605
51175.050048828125,30.3240692,-97.6037605
51275.050048828125,30.3240692,-97.6037605
51375.050048828125,30.3240692,-97.6037605
51475.050048828125,30.324069,-97.6037605
51575.050048828125,30.324069,-97.6037605
51675.050048828125,30.324069,-97.6037605
51775.050048828125,30.324069,-97.6037605
51875.050048828125,30.324069,-97.6037605
51975.050048828125,30.3240687,-97.6037603
52075.050048828125,30.3240687,-97.6037603
52175.050048828125,30.3240687,-97.6037603
52275.050048828125,30.3240687,-97.6037603
52375.050048828125,30.3240687,-97.6037603
52475.050048828125,30.3240685,-97.60376
52575.050048828125,30.3240685,-97.60376
52675.050048828125,30.3240685,-97.60376
52775.050048828125,30.3240685,-97.60376
52875.050048828125,30.3240685,-97.60376
52975.050048828125,30.3240683,-97.6037598
53075.050048828125,30.3240683,-97.6037598
53175.050048828125,30.3240683,-97.6037598
53275.050048828125,30.3240683,-97.6037598
53375.050048828125,30.3240683,-97.6037598
53475.050048828125,30.3240682,-97.6037596
53575.050048828125,30.3240682,-97.6037596
53675.050048828125,30.3240682,-97.6037596
53775.050048828125,30.3240682,-97.6037596
53875.050048828125,30.3240682,-97.6037596
53975.050048828125,30.324068,-97.6037594
54075.050048828125,30.324068,-97.6037594
54175.050048828125,30.324068,-97.6037594
54275.050048828125,30.324068,-97.6037594
54375.050048828125,30.324068,-97.6037594
54475.050048828125,30.3240678,-97.6037591
54575.050048828125,30.3240678,-97.6037591
54675.050048828125,30.3240678,-97.6037591
54775.050048828125,30.3240678,-97.6037591
54875.050048828125,30.3240678,-97.6037591
54975.050048828125,30.3240675,-97.603759
55075.050048828125,30.3240675,-97.603759
55175.050048828125,30.3240675,-97.603759
55275.050048828125,30.3240675,-97.603759
55375.050048828125,30.3240675,-97.603759
55475.050048828125,30.3240671,-97.6037591
55575.050048828125,30.3240671,-97.6037591
55675.050048828125,30.3240671,-97.6037591
55775.050048828125,30.3240671,-97.6037591
55875.050048828125,30.3240671,-97.6037591
55975.050048828125,30.3240668,-97.603759
56075.050048828125,30.3240668,-97.603759
56175.050048828125,30.3240668,-97.603759
56275.050048828125,30.3240668,-97.603759
56375.050048828125,30.3240668,-97.603759
56475.050048828125,30.3240666,-97.6037589
56575.050048828125,30.3240666,-97.6037589
56675.050048828125,30.3240666,-97.6037589
56775.050048828125,30.3240666,-97.6037589
56875.050048828125,30.3240666,-97.6037589
56975.050048828125,30.3240665,-97.6037589
57075.050048828125,30.3240665,-97.6037589
57175.050048828125,30.3240665,-97.6037589
57275.050048828125,30.3240665,-97.6037589
57375.050048828125,30.3240662,-97.603759
57475.050048828125,30.3240662,-97.603759
57575.050048828125,30.3240662,-97.603759
57675.050048828125,30.3240662,-97.603759
57775.050048828125,30.3240662,-97.603759
57875.050048828125,30.3240662,-97.603759
57975.050048828125,30.3240659,-97.6037588
58075.050048828125,30.3240659,-97.6037588
58175.050048828125,30.3240659,-97.6037588
58275.050048828125,30.3240659,-97.6037588
58375.050048828125,30.3240659,-97.6037588
58475.050048828125,30.3240657,-97.6037587
58575.050048828125,30.3240657,-97.6037587
58675.050048828125,30.3240657,-97.6037587
58775.050048828125,30.3240657,-97.6037587
58875.050048828125,30.3240657,-97.6037587
58975.050048828125,30.3240655,-97.6037585
59075.050048828125,30.3240655,-97.6037585
59175.050048828125,30.3240655,-97.6037585
59275.050048828125,30.3240655,-97.6037585
59375.050048828125,30.3240653,-97.6037584
59475.050048828125,30.3240653,-97.6037584
59575.050048828125,30.3240653,-97.6037584
59675.050048828125,30.3240653,-97.6037584
59775.050048828125,30.3240653,-97.6037584
59875.050048828125,30.3240653,-97.6037584
59975.050048828125,30.3240651,-97.6037581
60075.050048828125,30.3240651,-97.6037581
60175.050048828125,30.3240651,-97.6037581
60275.050048828125,30.3240651,-97.6037581
60375.050048828125,30.3240651,-97.6037581
60475.050048828125,30.3240649,-97.603758
60575.050048828125,30.3240649,-97.603758
60675.050048828125,30.3240649,-97.603758
60775.050048828125,30.3240649,-97.603758
60875.050048828125,30.3240649,-97.603758
60975.050048828125,30.3240647,-97.6037581
61075.050048828125,30.3240647,-97.6037581
61175.050048828125,30.3240647,-97.6037581
61275.050048828125,30.3240647,-97.6037581
61375.050048828125,30.3240647,-97.6037581
61475.050048828125,30.3240646,-97.6037581
61575.050048828125,30.3240646,-97.6037581
61675.050048828125,30.3240646,-97.6037581
61775.050048828125,30.3240646,-97.6037581
61875.050048828125,30.3240646,-97.6037581
61975.050048828125,30.3240642,-97.6037583
62075.050048828125,30.3240642,-97.6037583
62175.050048828125,30.3240642,-97.6037583
62275.050048828125,30.3240642,-97.6037583
62375.050048828125,30.3240642,-97.6037583
62475.050048828125,30.324064,-97.6037587
62575.050048828125,30.324064,-97.6037587
62675.050048828125,30.324064,-97.6037587
62775.050048828125,30.324064,-97.6037587
62875.050048828125,30.324064,-97.6037587
62975.050048828125,30.3240637,-97.6037591
63075.050048828125,30.3240637,-97.6037591
63175.050048828125,30.3240637,-97.6037591
63275.050048828125,30.3240637,-97.6037591
63375.050048828125,30.3240637,-97.6037591
63475.050048828125,30.3240636,-97.603759
63575.050048828125,30.3240636,-97.603759
63675.050048828125,30.3240636,-97.603759
63775.050048828125,30.3240636,-97.603759
63875.050048828125,30.3240636,-97.603759
63975.050048828125,30.3240633,-97.6037592
64075.050048828125,30.3240633,-97.6037592
64175.050048828125,30.3240633,-97.6037592
64275.050048828125,30.3240633,-97.6037592
64375.050048828125,30.3240633,-97.6037592
64475.050048828125,30.3240631,-97.6037595
64575.050048828125,30.3240631,-97.6037595
64675.050048828125,30.3240631,-97.6037595
64775.050048828125,30.3240631,-97.6037595
64875.050048828125,30.3240631,-97.6037595
64975.050048828125,30.3240629,-97.6037597
65075.050048828125,30.3240629,-97.6037597
65175.050048828125,30.3240629,-97.6037597
65275.050048828125,30.3240629,-97.6037597
65375.050048828125,30.3240627,-97.60376
65475.050048828125,30.3240627,-97.60376
65575.05004882812,30.3240627,-97.60376
65675.05004882812,30.3240627,-97.60376
65775.05004882812,30.3240627,-97.60376
65875.05004882812,30.3240627,-97.60376
65975.05004882812,30.3240624,-97.6037602
66075.05004882812,30.3240624,-97.6037602
66175.05004882812,30.3240624,-97.6037602
66275.05004882812,30.3240624,-97.6037602
66375.05004882812,30.3240621,-97.6037604
66475.05004882812,30.3240621,-97.6037604
66575.05004882812,30.3240621,-97.6037604
66675.05004882812,30.3240621,-97.6037604
66775.05004882812,30.3240621,-97.6037604
66875.05004882812,30.3240621,-97.6037604
66975.05004882812,30.3240619,-97.6037605
67075.05004882812,30.3240619,-97.6037605
67175.05004882812,30.3240619,-97.6037605
67275.05004882812,30.3240619,-97.6037605
67375.05004882812,30.3240619,-97.6037605
67475.05004882812,30.3240617,-97.6037608
67575.05004882812,30.3240617,-97.6037608
67675.05004882812,30.3240617,-97.6037608
67775.05004882812,30.3240617,-97.6037608
67875.05004882812,30.3240617,-97.6037608
67975.05004882812,30.3240616,-97.6037611
68075.05004882812,30.3240616,-97.6037611
68175.05004882812,30.3240616,-97.6037611
68275.05004882812,30.3240616,-97.6037611
68375.05004882812,30.3240616,-97.6037611
68475.05004882812,30.3240614,-97.6037613
68575.05004882812,30.3240614,-97.6037613
68675.05004882812,30.3240614,-97.6037613
68775.05004882812,30.3240614,-97.6037613
68875.05004882812,30.3240614,-97.6037613
68975.05004882812,30.3240611,-97.6037617
69075.05004882812,30.3240611,-97.6037617
69175.05004882812,30.3240611,-97.6037617
69275.05004882812,30.3240611,-97.6037617
69375.05004882812,30.3240611,-97.6037617
69475.05004882812,30.3240609,-97.6037622
69575.05004882812,30.3240609,-97.6037622
69675.05004882812,30.3240609,-97.6037622
69775.05004882812,30.3240609,-97.6037622
69875.05004882812,30.3240609,-97.6037622
69975.05004882812,30.3240607,-97.6037627
70075.05004882812,30.3240607,-97.6037627
70175.05004882812,30.3240607,-97.6037627
70275.05004882812,30.3240607,-97.6037627
70375.05004882812,30.3240607,-97.6037627
70475.05004882812,30.3240604,-97.6037632
70575.05004882812,30.3240604,-97.6037632
70675.05004882812,30.3240604,-97.6037632
70775.05004882812,30.3240604,-97.6037632
70875.05004882812,30.3240604,-97.6037632
70975.05004882812,30.3240601,-97.6037636
71075.05004882812,30.3240601,-97.6037636
71175.05004882812,30.3240601,-97.6037636
71275.05004882812,30.3240601,-97.6037636
71375.05004882812,30.3240597,-97.603764
71475.05004882812,30.3240597,-97.603764
71575.05004882812,30.3240597,-97.603764
71675.05004882812,30.3240597,-97.603764
71775.05004882812,30.3240597,-97.603764
71875.05004882812,30.3240597,-97.603764
71975.05004882812,30.3240596,-97.6037642
72075.05004882812,30.3240596,-97.6037642
72175.05004882812,30.3240596,-97.6037642
72275.05004882812,30.3240596,-97.6037642
72375.05004882812,30.3240596,-97.6037642
72475.05004882812,30.3240595,-97.6037643
72575.05004882812,30.3240595,-97.6037643
72675.05004882812,30.3240595,-97.6037643
72775.05004882812,30.3240595,-97.6037643
72875.05004882812,30.3240595,-97.6037643
72975.05004882812,30.3240593,-97.6037647
73075.05004882812,30.3240593,-97.6037647
73175.05004882812,30.3240593,-97.6037647
73275.05004882812,30.3240593,-97.6037647
73375.05004882812,30.3240593,-97.6037647
73475.05004882812,30.3240591,-97.603765
73575.05004882812,30.3240591,-97.603765
73675.05004882812,30.3240591,-97.603765
73775.05004882812,30.3240591,-97.603765
73875.05004882812,30.3240591,-97.603765
73975.05004882812,30.324059,-97.6037652
74075.05004882812,30.324059,-97.6037652
74175.05004882812,30.324059,-97.6037652
74275.05004882812,30.324059,-97.6037652
74375.05004882812,30.324059,-97.6037652
74475.05004882812,30.324059,-97.6037654
74575.05004882812,30.324059,-97.6037654
74675.05004882812,30.324059,-97.6037654
74775.05004882812,30.324059,-97.6037654
74875.05004882812,30.324059,-97.6037654
74975.05004882812,30.3240588,-97.6037656
75075.05004882812,30.3240588,-97.6037656
75175.05004882812,30.3240588,-97.6037656
75275.05004882812,30.3240588,-97.6037656
75375.05004882812,30.3240588,-97.6037656
75475.05004882812,30.3240587,-97.6037658
75575.05004882812,30.3240587,-97.6037658
75675.05004882812,30.3240587,-97.6037658
75775.05004882812,30.3240587,-97.6037658
75875.05004882812,30.3240587,-97.6037658
75975.05004882812,30.3240586,-97.603766
76075.05004882812,30.3240586,-97.603766
76175.05004882812,30.3240586,-97.603766
76275.05004882812,30.3240586,-97.603766
76375.05004882812,30.3240586,-97.603766
76475.05004882812,30.3240584,-97.6037662
76575.05004882812,30.3240584,-97.6037662
76675.05004882812,30.3240584,-97.6037662
76775.05004882812,30.3240584,-97.6037662
76875.05004882812,30.3240584,-97.6037662
76975.05004882812,30.3240583,-97.6037663
77075.05004882812,30.3240583,-97.6037663
77175.05004882812,30.3240583,-97.6037663
77275.05004882812,30.3240583,-97.6037663
77375.05004882812,30.3240583,-97.6037663
77475.05004882812,30.3240581,-97.6037667
77575.05004882812,30.3240581,-97.6037667
77675.05004882812,30.3240581,-97.6037667
77775.05004882812,30.3240581,-97.6037667
77875.05004882812,30.3240581,-97.6037667
77975.05004882812,30.3240578,-97.6037671
78075.05004882812,30.3240578,-97.6037671
78175.05004882812,30.3240578,-97.6037671
78275.05004882812,30.3240578,-97.6037671
78375.05004882812,30.3240578,-97.6037671
78475.05004882812,30.3240575,-97.6037678
78575.05004882812,30.3240575,-97.6037678
78675.05004882812,30.3240575,-97.6037678
78775.05004882812,30.3240575,-97.6037678
78875.05004882812,30.3240575,-97.6037678
78975.05004882812,30.3240573,-97.6037684
79075.05004882812,30.3240573,-97.6037684
79175.05004882812,30.3240573,-97.6037684
79275.05004882812,30.3240573,-97.6037684
79375.05004882812,30.3240573,-97.6037684
79475.05004882812,30.324057,-97.6037689
79575.05004882812,30.324057,-97.6037689
79675.05004882812,30.324057,-97.6037689
79775.05004882812,30.324057,-97.6037689
79875.05004882812,30.3240567,-97.6037695
79975.05004882812,30.3240567,-97.6037695
80075.05004882812,30.3240567,-97.6037695
80175.05004882812,30.3240567,-97.6037695
80275.05004882812,30.3240567,-97.6037695
80375.05004882812,30.3240567,-97.6037695
80475.05004882812,30.3240564,-97.60377
80575.05004882812,30.3240564,-97.60377
80675.05004882812,30.3240564,-97.60377
80775.05004882812,30.3240564,-97.60377
80875.05004882812,30.3240562,-97.6037705
80975.05004882812,30.3240562,-97.6037705
81075.05004882812,30.3240562,-97.6037705
81175.05004882812,30.3240562,-97.6037705
81275.05004882812,30.3240562,-97.6037705
81375.05004882812,30.3240562,-97.6037705
81475.05004882812,30.3240559,-97.603771
81575.05004882812,30.3240559,-97.603771
81675.05004882812,30.3240559,-97.603771
81775.05004882812,30.3240559,-97.603771
81875.05004882812,30.3240559,-97.603771
81975.05004882812,30.3240556,-97.6037716
82075.05004882812,30.3240556,-97.6037716
82175.05004882812,30.3240556,-97.6037716
82275.05004882812,30.3240556,-97.6037716
82375.05004882812,30.3240556,-97.6037716
82475.05004882812,30.3240553,-97.6037723
82575.05004882812,30.3240553,-97.6037723
82675.05004882812,30.3240553,-97.6037723
82775.05004882812,30.3240553,-97.6037723
82875.05004882812,30.3240553,-97.6037723
82975.05004882812,30.324055,-97.6037729
83075.05004882812,30.324055,-97.6037729
83175.05004882812,30.324055,-97.6037729
83275.05004882812,30.324055,-97.6037729
83375.05004882812,30.324055,-97.6037729
83475.05004882812,30.3240548,-97.6037735
83575.05004882812,30.3240548,-97.6037735
83675.05004882812,30.3240548,-97.6037735
83775.05004882812,30.3240548,-97.6037735
83875.05004882812,30.3240548,-97.6037735
83975.05004882812,30.3240547,-97.6037741
84075.05004882812,30.3240547,-97.6037741
84175.05004882812,30.3240547,-97.6037741
84275.05004882812,30.3240547,-97.6037741
84375.05004882812,30.3240547,-97.6037741
84475.05004882812,30.3240544,-97.6037749
84575.05004882812,30.3240544,-97.6037749
84675.05004882812,30.3240544,-97.6037749
84775.05004882812,30.3240544,-97.6037749
84875.05004882812,30.3240544,-97.6037749
84975.05004882812,30.3240543,-97.6037754
85075.05004882812,30.3240543,-97.6037754
85175.05004882812,30.3240543,-97.6037754
85275.05004882812,30.3240543,-97.6037754
85375.05004882812,30.3240543,-97.6037754
85475.05004882812,30.3240541,-97.6037762
85575.05004882812,30.3240541,-97.6037762
85675.05004882812,30.3240541,-97.6037762
85775.05004882812,30.3240541,-97.6037762
85875.05004882812,30.3240541,-97.6037762
85975.05004882812,30.3240539,-97.603777
86075.05004882812,30.3240539,-97.603777
86175.05004882812,30.3240539,-97.603777
86275.05004882812,30.3240539,-97.603777
86375.05004882812,30.3240539,-97.603777
86475.05004882812,30.3240538,-97.6037781
86575.05004882812,30.3240538,-97.6037781
86675.05004882812,30.3240538,-97.6037781
86775.05004882812,30.3240538,-97.6037781
86875.05004882812,30.3240538,-97.6037781
86975.05004882812,30.3240537,-97.6037789
87075.05004882812,30.3240537,-97.6037789
87175.05004882812,30.3240537,-97.6037789
87275.05004882812,30.3240537,-97.6037789
87375.05004882812,30.3240537,-97.6037789
87475.05004882812,30.3240535,-97.6037799
87575.05004882812,30.3240535,-97.6037799
87675.05004882812,30.3240535,-97.6037799
87775.05004882812,30.3240535,-97.6037799
87875.05004882812,30.3240535,-97.6037799
87975.05004882812,30.3240534,-97.603781
88075.05004882812,30.3240534,-97.603781
88175.05004882812,30.3240534,-97.603781
88275.05004882812,30.3240534,-97.603781
88375.05004882812,30.3240534,-97.603781
88475.05004882812,30.3240531,-97.603782
88575.05004882812,30.3240531,-97.603782
88675.05004882812,30.3240531,-97.603782
88775.05004882812,30.3240531,-97.603782
88875.05004882812,30.3240531,-97.603782
88975.05004882812,30.3240528,-97.6037832
89075.05004882812,30.3240528,-97.6037832
89175.05004882812,30.3240528,-97.6037832
89275.05004882812,30.3240528,-97.6037832
89375.05004882812,30.3240528,-97.6037832
89475.05004882812,30.3240527,-97.6037842
89575.05004882812,30.3240527,-97.6037842
89675.05004882812,30.3240527,-97.6037842
89775.05004882812,30.3240527,-97.6037842
89875.05004882812,30.3240527,-97.6037842
89975.05004882812,30.3240526,-97.6037852
90075.05004882812,30.3240526,-97.6037852
90175.05004882812,30.3240526,-97.6037852
90275.05004882812,30.3240526,-97.6037852
90375.05004882812,30.3240526,-97.6037852
90475.05004882812,30.3240526,-97.6037862
90575.05004882812,30.3240526,-97.6037862
90675.05004882812,30.3240526,-97.6037862
90775.05004882812,30.3240526,-97.6037862
90875.05004882812,30.3240526,-97.6037862
90975.05004882812,30.3240524,-97.603787
91075.05004882812,30.3240524,-97.603787
91175.05004882812,30.3240524,-97.603787
91275.05004882812,30.3240524,-97.603787
91375.05004882812,30.3240524,-97.603787
91475.05004882812,30.3240523,-97.6037876
91575.05004882812,30.3240523,-97.6037876
91675.05004882812,30.3240523,-97.6037876
91775.05004882812,30.3240523,-97.6037876
91875.05004882812,30.3240523,-97.6037876
91975.05004882812,30.3240521,-97.6037884
92075.05004882812,30.3240521,-97.6037884
92175.05004882812,30.3240521,-97.6037884
92275.05004882812,30.3240521,-97.6037884
92375.05004882812,30.3240521,-97.6037884
92475.05004882812,30.3240521,-97.603789
92575.05004882812,30.3240521,-97.603789
92675.05004882812,30.3240521,-97.603789
92775.05004882812,30.3240521,-97.603789
92875.05004882812,30.3240521,-97.603789
92975.05004882812,30.3240521,-97.6037895
93075.05004882812,30.3240521,-97.6037895
93175.05004882812,30.3240521,-97.6037895
93275.05004882812,30.3240521,-97.6037895
93375.05004882812,30.3240521,-97.6037895
93475.05004882812,30.3240521,-97.6037901
93575.05004882812,30.3240521,-97.6037901
93675.05004882812,30.3240521,-97.6037901
93775.05004882812,30.3240521,-97.6037901
93875.05004882812,30.3240521,-97.6037901
93975.05004882812,30.3240519,-97.6037908
94075.05004882812,30.3240519,-97.6037908
94175.05004882812,30.3240519,-97.6037908
94275.05004882812,30.3240519,-97.6037908
94375.05004882812,30.3240519,-97.6037908
94475.05004882812,30.3240518,-97.6037916
94575.05004882812,30.3240518,-97.6037916
94675.05004882812,30.3240518,-97.6037916
94775.05004882812,30.3240518,-97.6037916
94875.05004882812,30.3240518,-97.6037916
94975.05004882812,30.3240516,-97.6037922
95075.05004882812,30.3240516,-97.6037922
95175.05004882812,30.3240516,-97.6037922
95275.05004882812,30.3240516,-97.6037922
95375.05004882812,30.3240516,-97.6037922
95475.05004882812,30.3240514,-97.6037931
95575.05004882812,30.3240514,-97.6037931
95675.05004882812,30.3240514,-97.6037931
95775.05004882812,30.3240514,-97.6037931
95875.05004882812,30.3240514,-97.6037931
95975.05004882812,30.3240512,-97.6037939
96075.05004882812,30.3240512,-97.6037939
96175.05004882812,30.3240512,-97.6037939
96275.05004882812,30.3240512,-97.6037939
96375.05004882812,30.3240512,-97.6037939
96475.05004882812,30.3240509,-97.6037946
96575.05004882812,30.3240509,-97.6037946
96675.05004882812,30.3240509,-97.6037946
96775.05004882812,30.3240509,-97.6037946
96875.05004882812,30.3240509,-97.6037946
96975.05004882812,30.3240507,-97.6037953
97075.05004882812,30.3240507,-97.6037953
97175.05004882812,30.3240507,-97.6037953
97275.05004882812,30.3240507,-97.6037953
97375.05004882812,30.3240507,-97.6037953
97475.05004882812,30.3240506,-97.6037962
97575.05004882812,30.3240506,-97.6037962
97675.05004882812,30.3240506,-97.6037962
97775.05004882812,30.3240506,-97.6037962
97875.05004882812,30.3240506,-97.6037962
97975.05004882812,30.3240505,-97.6037969
98075.05004882812,30.3240505,-97.6037969
98175.05004882812,30.3240505,-97.6037969
98275.05004882812,30.3240505,-97.6037969
98375.05004882812,30.3240505,-97.6037969
98475.05004882812,30.3240504,-97.6037976
98575.05004882812,30.3240504,-97.6037976
98675.05004882812,30.3240504,-97.6037976
98775.05004882812,30.3240504,-97.6037976
98875.05004882812,30.3240504,-97.6037976
98975.05004882812,30.3240503,-97.6037984
99075.05004882812,30.3240503,-97.6037984
99175.05004882812,30.3240503,-97.6037984
99275.05004882812,30.3240503,-97.6037984
99375.05004882812,30.3240503,-97.6037984
99475.05004882812,30.3240502,-97.6037994
99575.05004882812,30.3240502,-97.6037994
99675.05004882812,30.3240502,-97.6037994
99775.05004882812,30.3240502,-97.6037994
99875.05004882812,30.3240502,-97.6037994
99975.05004882812,30.3240502,-97.6038003
100075.05004882812,30.3240502,-97.6038003
100175.05004882812,30.3240502,-97.6038003
100275.05004882812,30.3240502,-97.6038003
100375.05004882812,30.3240502,-97.6038003
100475.05004882812,30.3240502,-97.603801
100575.05004882812,30.3240502,-97.603801
100675.05004882812,30.3240502,-97.603801
100775.05004882812,30.3240502,-97.603801
100875.05004882812,30.3240502,-97.603801
100975.05004882812,30.3240502,-97.6038016
101075.05004882812,30.3240502,-97.6038016
101175.05004882812,30.3240502,-97.6038016
101275.05004882812,30.3240502,-97.6038016
101375.05004882812,30.3240502,-97.6038016
101475.05004882812,30.3240503,-97.6038023
101575.05004882812,30.3240503,-97.6038023
101675.05004882812,30.3240503,-97.6038023
101775.05004882812,30.3240503,-97.6038023
101875.05004882812,30.3240503,-97.6038023
101975.05004882812,30.3240503,-97.6038029
102075.05004882812,30.3240503,-97.6038029
102175.05004882812,30.3240503,-97.6038029
102275.05004882812,30.3240503,-97.6038029
102375.05004882812,30.3240503,-97.6038029
102475.05004882812,30.3240506,-97.6038031
102575.05004882812,30.3240506,-97.6038031
102675.05004882812,30.3240506,-97.6038031
102775.05004882812,30.3240506,-97.6038031
102875.05004882812,30.3240506,-97.6038031
102975.05004882812,30.3240508,-97.6038035
103075.05004882812,30.3240508,-97.6038035
103175.05004882812,30.3240508,-97.6038035
103275.05004882812,30.3240508,-97.6038035
103375.05004882812,30.3240508,-97.6038035
103475.05004882812,30.3240507,-97.603804
103575.05004882812,30.3240507,-97.603804
103675.05004882812,30.3240507,-97.603804
103775.05004882812,30.3240507,-97.603804
103875.05004882812,30.3240507,-97.603804
103975.05004882812,30.3240507,-97.6038044
104075.05004882812,30.3240507,-97.6038044
104175.05004882812,30.3240507,-97.6038044
104275.05004882812,30.3240507,-97.6038044
104375.05004882812,30.3240507,-97.6038044
104475.05004882812,30.3240507,-97.6038048
104575.05004882812,30.3240507,-97.6038048
104675.05004882812,30.3240507,-97.6038048
104775.05004882812,30.3240507,-97.6038048
104875.05004882812,30.3240507,-97.6038048
104975.05004882812,30.3240507,-97.6038054
105075.05004882812,30.3240507,-97.6038054
105175.05004882812,30.3240507,-97.6038054
105275.05004882812,30.3240507,-97.6038054
105375.05004882812,30.3240507,-97.6038054
105475.05004882812,30.3240508,-97.6038056
105575.05004882812,30.3240508,-97.6038056
105675.05004882812,30.3240508,-97.6038056
105775.05004882812,30.3240508,-97.6038056
105875.05004882812,30.3240508,-97.6038056
105975.05004882812,30.324051,-97.6038062
106075.05004882812,30.324051,-97.6038062
106175.05004882812,30.324051,-97.6038062
106275.05004882812,30.324051,-97.6038062
106375.05004882812,30.324051,-97.6038062
106475.05004882812,30.3240513,-97.6038068
106575.05004882812,30.3240513,-97.6038068
106675.05004882812,30.3240513,-97.6038068
106775.05004882812,30.3240513,-97.6038068
106875.05004882812,30.3240513,-97.6038068
106975.05004882812,30.3240514,-97.6038076
107075.05004882812,30.3240514,-97.6038076
107175.05004882812,30.3240514,-97.6038076
107275.05004882812,30.3240514,-97.6038076
107375.05004882812,30.3240514,-97.6038076
107475.05004882812,30.3240516,-97.6038082
107575.05004882812,30.3240516,-97.6038082
107675.05004882812,30.3240516,-97.6038082
107775.05004882812,30.3240516,-97.6038082
107875.05004882812,30.3240516,-97.6038082
107975.05004882812,30.3240518,-97.6038088
108075.05004882812,30.3240518,-97.6038088
108175.05004882812,30.3240518,-97.6038088
108275.05004882812,30.3240518,-97.6038088
108375.05004882812,30.3240518,-97.6038088
108475.05004882812,30.324052,-97.6038096
108575.05004882812,30.324052,-97.6038096
108675.05004882812,30.324052,-97.6038096
108775.05004882812,30.324052,-97.6038096
108875.05004882812,30.324052,-97.6038096
108975.05004882812,30.3240522,-97.6038102
109075.05004882812,30.3240522,-97.6038102
109175.05004882812,30.3240522,-97.6038102
109275.05004882812,30.3240522,-97.6038102
109375.05004882812,30.3240522,-97.6038102
109475.05004882812,30.3240524,-97.6038109
109575.05004882812,30.3240524,-97.6038109
109675.05004882812,30.3240524,-97.6038109
109775.05004882812,30.3240524,-97.6038109
109875.05004882812,30.3240524,-97.6038109
109975.05004882812,30.3240526,-97.6038117
110075.05004882812,30.3240526,-97.6038117
110175.05004882812,30.3240526,-97.6038117
110275.05004882812,30.3240526,-97.6038117
110375.05004882812,30.3240526,-97.6038117
110475.05004882812,30.3240525,-97.6038126
110575.05004882812,30.3240525,-97.6038126
110675.05004882812,30.3240525,-97.6038126
110775.05004882812,30.3240525,-97.6038126
110875.05004882812,30.3240525,-97.6038126
110975.05004882812,30.3240524,-97.6038132
111075.05004882812,30.3240524,-97.6038132
111175.05004882812,30.3240524,-97.6038132
111275.05004882812,30.3240524,-97.6038132
111375.05004882812,30.3240524,-97.6038132
111475.05004882812,30.3240523,-97.6038137
111575.05004882812,30.3240523,-97.6038137
111675.05004882812,30.3240523,-97.6038137
111775.05004882812,30.3240523,-97.6038137
111875.05004882812,30.3240523,-97.6038137
111975.05004882812,30.3240525,-97.603814
112075.05004882812,30.3240525,-97.603814
112175.05004882812,30.3240525,-97.603814
112275.05004882812,30.3240525,-97.603814
112375.05004882812,30.3240525,-97.603814
112475.05004882812,30.3240527,-97.6038147
112575.05004882812,30.3240527,-97.6038147
112675.05004882812,30.3240527,-97.6038147
112775.05004882812,30.3240527,-97.6038147
112875.05004882812,30.3240527,-97.6038147
112975.05004882812,30.3240528,-97.6038153
113075.05004882812,30.3240528,-97.6038153
113175.05004882812,30.3240528,-97.6038153
113275.05004882812,30.3240528,-97.6038153
113375.05004882812,30.3240528,-97.6038153
113475.05004882812,30.324053,-97.6038162
113575.05004882812,30.324053,-97.6038162
113675.05004882812,30.324053,-97.6038162
113775.05004882812,30.324053,-97.6038162
113875.05004882812,30.324053,-97.6038162
113975.05004882812,30.3240531,-97.6038171
114075.05004882812,30.3240531,-97.6038171
114175.05004882812,30.3240531,-97.6038171
114275.05004882812,30.3240531,-97.6038171
114375.05004882812,30.3240531,-97.6038171
114475.05004882812,30.3240531,-97.6038181
114575.05004882812,30.3240531,-97.6038181
114675.05004882812,30.3240531,-97.6038181
114775.05004882812,30.3240531,-97.6038181
114875.05004882812,30.3240531,-97.6038181
114975.05004882812,30.3240529,-97.6038194
115075.05004882812,30.3240529,-97.6038194
115175.05004882812,30.3240529,-97.6038194
115275.05004882812,30.3240529,-97.6038194
115375.05004882812,30.3240529,-97.6038194
115475.05004882812,30.3240529,-97.6038203
115575.05004882812,30.3240529,-97.6038203
115675.05004882812,30.3240529,-97.6038203
115775.05004882812,30.3240529,-97.6038203
115875.05004882812,30.3240529,-97.6038203
115975.05004882812,30.3240529,-97.6038214
116075.05004882812,30.3240529,-97.6038214
116175.05004882812,30.3240529,-97.6038214
116275.05004882812,30.3240529,-97.6038214
116375.05004882812,30.3240529,-97.6038214
116475.05004882812,30.324053,-97.603822
116575.05004882812,30.324053,-97.603822
116675.05004882812,30.324053,-97.603822
116775.05004882812,30.324053,-97.603822
116875.05004882812,30.324053,-97.603822
116975.05004882812,30.3240529,-97.6038227
117075.05004882812,30.3240529,-97.6038227
117175.05004882812,30.3240529,-97.6038227
117275.05004882812,30.3240529,-97.6038227
117375.05004882812,30.3240529,-97.6038227
117475.05004882812,30.3240526,-97.6038234
117575.05004882812,30.3240526,-97.6038234
117675.05004882812,30.3240526,-97.6038234
117775.05004882812,30.3240526,-97.6038234
117875.05004882812,30.3240526,-97.6038234
117975.05004882812,30.3240523,-97.6038241
118075.05004882812,30.3240523,-97.6038241
118175.05004882812,30.3240523,-97.6038241
118275.05004882812,30.3240523,-97.6038241
118375.05004882812,30.3240523,-97.6038241
118475.05004882812,30.3240522,-97.6038246
118575.05004882812,30.3240522,-97.6038246
118675.05004882812,30.3240522,-97.6038246
118775.05004882812,30.3240522,-97.6038246
118875.05004882812,30.3240522,-97.6038246
118975.05004882812,30.3240519,-97.6038252
119075.05004882812,30.3240519,-97.6038252
119175.05004882812,30.3240519,-97.6038252
119275.05004882812,30.3240519,-97.6038252
119375.05004882812,30.3240519,-97.6038252
119475.05004882812,30.3240517,-97.603826
119575.05004882812,30.3240517,-97.603826
119675.05004882812,30.3240517,-97.603826
119775.05004882812,30.3240517,-97.603826
119875.05004882812,30.3240517,-97.603826
119975.05004882812,30.3240517,-97.6038271
120075.05004882812,30.3240517,-97.6038271
120175.05004882812,30.3240517,-97.6038271
120275.05004882812,30.3240517,-97.6038271
120375.05004882812,30.3240517,-97.6038271
120475.05004882812,30.3240515,-97.6038272
120575.05004882812,30.3240515,-97.6038272
120675.05004882812,30.3240515,-97.6038272
120775.05004882812,30.3240515,-97.6038272
120875.05004882812,30.3240515,-97.6038272
120975.05004882812,30.3240515,-97.6038271
121075.05004882812,30.3240515,-97.6038271
121175.05004882812,30.3240515,-97.6038271
121275.05004882812,30.3240515,-97.6038271
121375.05004882812,30.3240515,-97.6038271
121475.05004882812,30.3240517,-97.603827
121575.05004882812,30.3240517,-97.603827
121675.05004882812,30.3240517,-97.603827
121775.05004882812,30.3240517,-97.603827
121875.05004882812,30.3240517,-97.603827
121975.05004882812,30.3240519,-97.6038271
122075.05004882812,30.3240519,-97.6038271
122175.05004882812,30.3240519,-97.6038271
122275.05004882812,30.3240519,-97.6038271
122375.05004882812,30.3240519,-97.6038271
122475.05004882812,30.3240519,-97.6038272
122575.05004882812,30.3240519,-97.6038272
122675.05004882812,30.3240519,-97.6038272
122775.05004882812,30.3240519,-97.6038272
122875.05004882812,30.3240519,-97.6038272
122975.05004882812,30.3240518,-97.6038274
123075.05004882812,30.3240518,-97.6038274
123175.05004882812,30.3240518,-97.6038274
123275.05004882812,30.3240518,-97.6038274
123375.05004882812,30.3240518,-97.6038274
123475.05004882812,30.3240518,-97.6038274
123575.05004882812,30.3240518,-97.6038274
123675.05004882812,30.3240518,-97.6038274
123775.05004882812,30.3240518,-97.6038274
123875.05004882812,30.3240518,-97.6038274
123975.05004882812,30.3240517,-97.6038276
124075.05004882812,30.3240517,-97.6038276
124175.05004882812,30.3240517,-97.6038276
124275.05004882812,30.3240517,-97.6038276
124375.05004882812,30.3240517,-97.6038276
124475.05004882812,30.3240517,-97.6038276
124575.05004882812,30.3240517,-97.6038276
124675.05004882812,30.3240517,-97.6038276
124775.05004882812,30.3240517,-97.6038276
124875.05004882812,30.3240517,-97.6038276
124975.05004882812,30.3240517,-97.6038277
125075.05004882812,30.3240517,-97.6038277
125175.05004882812,30.3240517,-97.6038277
125275.05004882812,30.3240517,-97.6038277
125375.05004882812,30.3240517,-97.6038277
125475.05004882812,30.3240516,-97.6038277
125575.05004882812,30.3240516,-97.6038277
125675.05004882812,30.3240516,-97.6038277
125775.05004882812,30.3240516,-97.6038277
125875.05004882812,30.3240516,-97.6038277
125975.05004882812,30.3240517,-97.6038278
126075.05004882812,30.3240517,-97.6038278
126175.05004882812,30.3240517,-97.6038278
126275.05004882812,30.3240517,-97.6038278
126375.05004882812,30.3240517,-97.6038278
126475.05004882812,30.3240517,-97.6038277
126575.05004882812,30.3240517,-97.6038277
126675.05004882812,30.3240517,-97.6038277
126775.05004882812,30.3240517,-97.6038277
126875.05004882812,30.3240517,-97.6038277
126975.05004882812,30.3240519,-97.6038275
127075.05004882812,30.3240519,-97.6038275
127175.05004882812,30.3240519,-97.6038275
127275.05004882812,30.3240519,-97.6038275
127375.05004882812,30.3240519,-97.6038275
127475.05004882812,30.3240521,-97.6038273
127575.05004882812,30.3240521,-97.6038273
127675.05004882812,30.3240521,-97.6038273
127775.05004882812,30.3240521,-97.6038273
127875.05004882812,30.3240521,-97.6038273
127975.05004882812,30.3240522,-97.603827
128075.05004882812,30.3240522,-97.603827
128175.05004882812,30.3240522,-97.603827
128275.05004882812,30.3240522,-97.603827
128375.05004882812,30.3240522,-97.603827
128475.05004882812,30.3240524,-97.6038269
128575.05004882812,30.3240524,-97.6038269
128675.05004882812,30.3240524,-97.6038269
128775.05004882812,30.3240524,-97.6038269
128875.05004882812,30.3240524,-97.6038269
128975.05004882812,30.3240526,-97.6038266
129075.05004882812,30.3240526,-97.6038266
129175.05004882812,30.3240526,-97.6038266
129275.05004882812,30.3240526,-97.6038266
129375.05004882812,30.3240526,-97.6038266
129475.05004882812,30.3240529,-97.6038264
129575.05004882812,30.3240529,-97.6038264
129675.05004882812,30.3240529,-97.6038264
129775.05004882812,30.3240529,-97.6038264
129875.05004882812,30.3240529,-97.6038264
129975.05004882812,30.3240531,-97.6038262
130075.05004882812,30.3240531,-97.6038262
130175.05004882812,30.3240531,-97.6038262
130275.05004882812,30.3240531,-97.6038262
130375.05004882812,30.3240531,-97.6038262
130475.05004882812,30.3240533,-97.6038262
130575.05004882812,30.3240533,-97.6038262
130675.05004882812,30.3240533,-97.6038262
130775.05004882812,30.3240533,-97.6038262
130875.05004882812,30.3240533,-97.6038262
130975.05004882812,30.3240536,-97.6038261
131075.05004882812,30.3240536,-97.6038261
131175.05004882812,30.3240536,-97.6038261
131275.05004882812,30.3240536,-97.6038261
131375.05004882812,30.3240536,-97.6038261
131475.05004882812,30.3240539,-97.6038259
131575.05004882812,30.3240539,-97.6038259
131675.05004882812,30.3240539,-97.6038259
131775.05004882812,30.3240539,-97.6038259
131875.05004882812,30.3240539,-97.6038259
131975.05004882812,30.3240542,-97.6038256
132075.05004882812,30.3240542,-97.6038256
132175.05004882812,30.3240542,-97.6038256
132275.05004882812,30.3240542,-97.6038256
132375.05004882812,30.3240542,-97.6038256
132475.05004882812,30.3240546,-97.6038251
132575.05004882812,30.3240546,-97.6038251
132675.05004882812,30.3240546,-97.6038251
132775.05004882812,30.3240546,-97.6038251
132875.05004882812,30.324055,-97.6038248
132975.05004882812,30.324055,-97.6038248
133075.05004882812,30.324055,-97.6038248
133175.05004882812,30.324055,-97.6038248
133275.05004882812,30.324055,-97.6038248
133375.05004882812,30.324055,-97.6038248
133475.05004882812,30.3240555,-97.6038245
133575.05004882812,30.3240555,-97.6038245
133675.05004882812,30.3240555,-97.6038245
133775.05004882812,30.3240555,-97.6038245
133875.05004882812,30.3240555,-97.6038245
133975.05004882812,30.3240559,-97.6038244
134075.05004882812,30.3240559,-97.6038244
134175.05004882812,30.3240559,-97.6038244
134275.05004882812,30.3240559,-97.6038244
134375.05004882812,30.3240559,-97.6038244
134475.05004882812,30.3240563,-97.6038244
134575.05004882812,30.3240563,-97.6038244
134675.05004882812,30.3240563,-97.6038244
134775.05004882812,30.3240563,-97.6038244
134875.05004882812,30.3240563,-97.6038244
134975.05004882812,30.3240567,-97.6038242
135075.05004882812,30.3240567,-97.6038242
135175.05004882812,30.3240567,-97.6038242
135275.05004882812,30.3240567,-97.6038242
135375.05004882812,30.3240567,-97.6038242
135475.05004882812,30.3240569,-97.6038242
135575.05004882812,30.3240569,-97.6038242
135675.05004882812,30.3240569,-97.6038242
135775.05004882812,30.3240569,-97.6038242
135875.05004882812,30.3240569,-97.6038242
135975.05004882812,30.3240571,-97.6038243
136075.05004882812,30.3240571,-97.6038243
136175.05004882812,30.3240571,-97.6038243
136275.05004882812,30.3240571,-97.6038243
136375.05004882812,30.3240571,-97.6038243
136475.05004882812,30.3240574,-97.6038244
136575.05004882812,30.3240574,-97.6038244
136675.05004882812,30.3240574,-97.6038244
136775.05004882812,30.3240574,-97.6038244
136875.05004882812,30.3240574,-97.6038244
136975.05004882812,30.3240575,-97.6038245
137075.05004882812,30.3240575,-97.6038245
137175.05004882812,30.3240575,-97.6038245
137275.05004882812,30.3240575,-97.6038245
137375.05004882812,30.3240575,-97.6038245
137475.05004882812,30.3240577,-97.6038246
137575.05004882812,30.3240577,-97.6038246
137675.05004882812,30.3240577,-97.6038246
137775.05004882812,30.3240577,-97.6038246
137875.05004882812,30.3240577,-97.6038246
137975.05004882812,30.3240579,-97.6038247
138075.05004882812,30.3240579,-97.6038247
138175.05004882812,30.3240579,-97.6038247
138275.05004882812,30.3240579,-97.6038247
138375.05004882812,30.3240579,-97.6038247
138475.05004882812,30.3240582,-97.6038247
138575.05004882812,30.3240582,-97.6038247
138675.05004882812,30.3240582,-97.6038247
138775.05004882812,30.3240582,-97.6038247
138875.05004882812,30.3240582,-97.6038247
138975.05004882812,30.3240585,-97.6038247
139075.05004882812,30.3240585,-97.6038247
139175.05004882812,30.3240585,-97.6038247
139275.05004882812,30.3240585,-97.6038247
139375.05004882812,30.3240585,-97.6038247
139475.05004882812,30.3240588,-97.6038246
139575.05004882812,30.3240588,-97.6038246
139675.05004882812,30.3240588,-97.6038246
139775.05004882812,30.3240588,-97.6038246
139875.05004882812,30.3240588,-97.6038246
139975.05004882812,30.3240591,-97.6038246
140075.05004882812,30.3240591,-97.6038246
140175.05004882812,30.3240591,-97.6038246
140275.05004882812,30.3240591,-97.6038246
140375.05004882812,30.3240591,-97.6038246
140475.05004882812,30.3240596,-97.6038246
140575.05004882812,30.3240596,-97.6038246
140675.05004882812,30.3240596,-97.6038246
140775.05004882812,30.3240596,-97.6038246
140875.05004882812,30.3240596,-97.6038246
140975.05004882812,30.3240601,-97.6038244
141075.05004882812,30.3240601,-97.6038244
141175.05004882812,30.3240601,-97.6038244
141275.05004882812,30.3240601,-97.6038244
141375.05004882812,30.3240601,-97.6038244
141475.05004882812,30.3240606,-97.6038244
141575.05004882812,30.3240606,-97.6038244
141675.05004882812,30.3240606,-97.6038244
141775.05004882812,30.3240606,-97.6038244
141875.05004882812,30.3240606,-97.6038244
141975.05004882812,30.324061,-97.6038245
142075.05004882812,30.324061,-97.6038245
142175.05004882812,30.324061,-97.6038245
142275.05004882812,30.324061,-97.6038245
142375.05004882812,30.324061,-97.6038245
142475.05004882812,30.3240614,-97.6038247
142575.05004882812,30.3240614,-97.6038247
142675.05004882812,30.3240614,-97.6038247
142775.05004882812,30.3240614,-97.6038247
142875.05004882812,30.3240614,-97.6038247
142975.05004882812,30.3240617,-97.6038249
143075.05004882812,30.3240617,-97.6038249
143175.05004882812,30.3240617,-97.6038249
143275.05004882812,30.3240617,-97.6038249
143375.05004882812,30.3240617,-97.6038249
143475.05004882812,30.324062,-97.6038252
143575.05004882812,30.324062,-97.6038252
143675.05004882812,30.324062,-97.6038252
143775.05004882812,30.324062,-97.6038252
143875.05004882812,30.324062,-97.6038252
143975.05004882812,30.3240623,-97.6038256
144075.05004882812,30.3240623,-97.6038256
144175.05004882812,30.3240623,-97.6038256
